City_ID,City,Lat,Lng,Max Temp,Humidity,Cloudiness,Wind Speed,Country,Date
0,astaneh-ye ashrafiyeh,37.2596,49.9444,4.96,91,93,1.23,IR,1680403512
1,saskylakh,71.9167,114.0833,-6.28,87,94,7.74,RU,1680403512
2,rikitea,-23.1203,-134.9692,26.81,81,75,6.4,PF,1680403512
3,japura,-0.3167,102.35,24.77,91,100,0.75,ID,1680403512
4,cape town,-33.9258,18.4232,17.99,79,0,3.09,ZA,1680403397
5,arraial do cabo,-22.9661,-42.0278,24.04,86,1,5.81,BR,1680403513
6,tasiilaq,65.6145,-37.6368,-2.91,80,97,1.8,GL,1680403217
7,sao joao da barra,-21.6403,-41.0511,23.06,93,99,2.9,BR,1680403513
8,hithadhoo,-0.6,73.0833,27.64,73,60,3.31,MV,1680403243
9,goderich,43.7501,-81.7165,1.62,55,76,7.72,CA,1680403514
10,dikson,73.5069,80.5464,-14.58,96,100,3.69,RU,1680403514
11,virginia beach,36.8529,-75.978,24.02,38,0,12.86,US,1680403418
12,bichura,50.5881,107.6022,-7.14,45,100,4.89,RU,1680403514
13,marsh harbour,26.5412,-77.0636,24.12,82,6,5.64,BS,1680403515
14,port hardy,50.6996,-127.4199,3.1,93,75,3.6,CA,1680403391
15,hilo,19.7297,-155.09,25.16,83,100,2.68,US,1680403515
16,manggar,-2.8833,108.2667,29.63,62,91,0.25,ID,1680403337
17,mar del plata,-38.0023,-57.5575,16.16,69,0,3.6,AR,1680403287
18,nara,34.6851,135.8049,21.09,46,100,4.61,JP,1680403388
19,san patricio,28.017,-97.5169,24.97,81,66,4.43,US,1680403516
20,thompson,55.7435,-97.8558,-11.91,44,75,3.6,CA,1680403516
21,ushuaia,-54.8,-68.3,5.81,70,20,5.14,AR,1680403270
22,saint-philippe,-21.3585,55.7679,23.77,81,100,3.75,RE,1680403516
23,puerto ayora,-0.7393,-90.3518,27.53,91,69,2.68,EC,1680403517
24,new norfolk,-42.7826,147.0587,18.29,58,100,2.68,AU,1680403517
25,hervey bay,-25.2986,152.8535,23.7,58,92,2.2,AU,1680403517
26,faanui,-16.4833,-151.75,28.29,68,2,3.34,PF,1680403258
27,dagana,16.5165,-15.5068,27.3,7,0,3.97,MR,1680403518
28,maiduguri,11.8464,13.1603,23.32,27,14,2.98,NG,1680403518
29,port macquarie,-31.4333,152.9167,22.16,64,100,3.74,AU,1680403518
30,mataura,-46.1927,168.8643,13.04,96,100,1.34,NZ,1680403518
31,longyearbyen,78.2186,15.6401,-12.09,85,75,2.57,SJ,1680403519
32,antofagasta,-23.65,-70.4,21.6,86,38,0.85,CL,1680402943
33,cidreira,-30.1811,-50.2056,19.0,71,42,3.29,BR,1680403292
34,albany,42.6001,-73.9662,10.03,84,100,3.09,US,1680403505
35,kapaa,22.0752,-159.319,23.18,90,40,5.14,US,1680403486
36,vaini,-21.2,-175.2,26.45,76,13,7.24,TO,1680403519
37,jamestown,42.097,-79.2353,1.77,93,100,10.8,US,1680403520
38,bluff,-46.6,168.3333,13.22,64,72,7.47,NZ,1680403520
39,hermanus,-34.4187,19.2345,17.11,87,1,3.91,ZA,1680403520
40,maracacume,-2.0428,-45.9592,22.27,99,100,1.07,BR,1680403520
41,destin,30.3935,-86.4958,22.23,92,40,2.57,US,1680403521
42,monrovia,6.3005,-10.7969,23.87,87,1,1.36,LR,1680403521
43,saint george,37.1041,-113.5841,17.33,32,0,2.57,US,1680403261
44,kodiak,57.79,-152.4072,4.73,42,0,11.83,US,1680403521
45,gobabis,-22.45,18.9667,18.2,35,37,0.85,NA,1680403273
46,kaitangata,-46.2817,169.8464,13.85,69,99,3.34,NZ,1680403522
47,puerto cabello,10.4731,-68.0125,28.75,90,100,4.47,VE,1680403522
48,umm lajj,25.0213,37.2685,20.56,41,0,4.09,SA,1680403250
49,bredasdorp,-34.5322,20.0403,15.47,98,18,1.59,ZA,1680403522
50,barrow,71.2906,-156.7887,-16.99,85,100,5.14,US,1680403522
51,nikolskoye,59.7035,30.7861,-1.06,96,64,3.03,RU,1680403523
52,chernaya kholunitsa,58.8511,51.7154,-0.1,92,99,2.53,RU,1680403523
53,tyret pervaya,53.6703,102.3106,-8.04,58,51,3.68,RU,1680403523
54,wanning,18.8003,110.3967,28.22,71,71,5.27,CN,1680403523
55,upernavik,72.7868,-56.1549,-31.02,99,49,3.51,GL,1680403236
56,komsomolskiy,40.4272,71.7189,16.4,55,100,3.09,UZ,1680403524
57,bom jesus,-9.0744,-44.3586,22.68,61,38,1.15,BR,1680403524
58,tuktoyaktuk,69.4541,-133.0374,-21.0,77,20,5.14,CA,1680403524
59,mahebourg,-20.4081,57.7,25.16,83,40,0.0,MU,1680403525
60,banda aceh,5.5577,95.3222,28.78,68,49,2.46,ID,1680403525
61,coquimbo,-29.9533,-71.3436,15.85,88,0,1.54,CL,1680403526
62,chuy,-33.6971,-53.4616,15.02,75,61,1.6,UY,1680403526
63,hobart,-42.8794,147.3294,18.48,60,75,4.63,AU,1680402754
64,innisfail,-17.5333,146.0333,31.21,72,90,3.25,AU,1680403527
65,ancud,-41.8697,-73.8203,11.41,89,36,1.8,CL,1680403527
66,guarare,7.8167,-80.2833,25.59,81,96,8.1,PA,1680403527
67,punta arenas,-53.15,-70.9167,6.06,70,0,2.06,CL,1680403234
68,souillac,-20.5167,57.5167,25.21,83,40,0.0,MU,1680403527
69,bambous virieux,-20.3428,57.7575,25.14,83,40,0.0,MU,1680403528
70,busselton,-33.65,115.3333,23.34,52,0,2.86,AU,1680403528
71,khatanga,71.9667,102.5,-6.58,94,100,8.29,RU,1680403528
72,portland,45.5234,-122.6762,8.39,71,75,4.63,US,1680402974
73,komsomolets,53.7453,62.0708,-2.05,82,11,2.98,KZ,1680403529
74,vao,-22.6667,167.4833,25.9,80,30,3.27,NC,1680403304
75,ilulissat,69.2167,-51.1,-18.99,78,56,3.09,GL,1680403529
76,nabire,-3.3667,135.4833,30.25,63,82,2.2,ID,1680403258
77,port alfred,-33.5906,26.891,18.99,93,6,0.89,ZA,1680403529
78,constitucion,-35.3333,-72.4167,15.5,77,99,4.99,CL,1680403235
79,ewa beach,21.3156,-158.0072,24.13,78,100,2.06,US,1680403472
80,aklavik,68.2191,-135.0107,-15.65,95,98,1.75,CA,1680403530
81,shitanjing,39.2342,106.3439,5.43,37,100,6.09,CN,1680403530
82,luderitz,-26.6481,15.1594,16.95,79,74,2.93,NA,1680403531
83,lata,40.1629,-8.3327,11.62,95,86,1.31,PT,1680403485
84,shar,49.5886,81.0453,-6.43,52,0,4.79,KZ,1680403531
85,pangai,-19.8,-174.35,26.91,77,9,7.21,TO,1680403531
86,inverell,-29.7833,151.1167,27.04,50,13,1.34,AU,1680403532
87,kirakira,-10.4544,161.9205,29.35,72,100,2.49,SB,1680403532
88,ostrovnoy,68.0531,39.5131,-2.36,73,100,8.6,RU,1680403532
89,muravlenko,63.7898,74.523,0.52,98,100,12.55,RU,1680403533
90,tiksi,71.6872,128.8694,-14.76,80,100,13.38,RU,1680403533
91,ithaca,42.4406,-76.4966,6.16,83,100,8.75,US,1680403410
92,launceston,-41.45,147.1667,18.67,58,100,5.14,AU,1680403533
93,naze,28.3667,129.4833,21.51,72,12,8.14,JP,1680403533
94,erenhot,43.6475,111.9767,8.48,49,100,9.3,CN,1680403534
95,bonavista,48.6499,-53.1147,-0.89,84,100,6.02,CA,1680403534
96,kyzyl-suu,42.3414,78.0056,5.42,27,0,0.26,KG,1680403534
97,le mans,48.0,0.2,8.96,87,75,3.09,FR,1680403432
98,iqaluit,63.7506,-68.5145,-18.15,71,20,1.03,CA,1680403437
99,praia da vitoria,38.7333,-27.0667,18.14,82,40,11.47,PT,1680403535
100,ozernovskiy,51.5,156.5167,-1.02,90,95,5.15,RU,1680403535
101,tazovskiy,67.4667,78.7,0.11,98,100,7.53,RU,1680403535
102,geraldton,-28.7667,114.6,26.23,65,40,5.66,AU,1680403536
103,olafsvik,64.8945,-23.7142,4.24,77,100,11.57,IS,1680403536
104,esperance,-33.8667,121.9,20.93,65,77,3.5,AU,1680403271
105,urucui,-7.2294,-44.5561,23.18,71,99,0.74,BR,1680403536
106,castro,-24.7911,-50.0119,16.47,97,34,2.61,BR,1680403537
107,rafaela,-31.2503,-61.4867,17.77,49,99,0.89,AR,1680403537
108,port elizabeth,-33.918,25.5701,17.16,99,0,0.0,ZA,1680403537
109,port-gentil,-0.7193,8.7815,25.62,83,100,4.24,GA,1680403537
110,yellowknife,62.456,-114.3525,-11.71,72,100,5.14,CA,1680403537
111,plover,44.4564,-89.544,-0.94,79,0,0.45,US,1680403377
112,urumqi,43.801,87.6005,-2.47,37,0,1.0,CN,1680403538
113,tuatapere,-46.1333,167.6833,12.22,71,60,3.8,NZ,1680403538
114,uzyn,49.8262,30.4149,8.12,96,100,3.42,UA,1680403538
115,vestmannaeyjar,63.4427,-20.2734,5.87,63,93,7.71,IS,1680403270
116,avarua,-21.2078,-159.775,28.03,78,75,5.14,CK,1680403387
117,taos,36.4072,-105.5731,8.78,26,0,3.09,US,1680403302
118,helong,42.5397,128.9972,18.47,36,24,2.03,CN,1680403539
119,bratsk,56.1325,101.6142,-9.73,63,20,1.64,RU,1680403310
120,novita,4.9551,-76.6053,23.77,97,100,0.91,CO,1680403539
121,torbay,47.6666,-52.7314,0.32,87,100,9.26,CA,1680403540
122,mehran,33.1222,46.1646,10.62,38,1,3.54,IR,1680403540
123,ponta do sol,32.6667,-17.1,17.85,54,0,2.94,PT,1680403540
124,hofn,64.2539,-15.2082,3.25,66,2,3.05,IS,1680403540
125,riyadh,24.6877,46.7219,12.08,27,21,3.83,SA,1680403113
126,turukhansk,65.8167,87.9833,-4.82,95,100,11.63,RU,1680403541
127,cherskiy,68.75,161.3,-23.19,88,100,1.45,RU,1680403541
128,mvangue,2.9667,11.5167,19.42,99,92,0.93,CM,1680403541
129,mporokoso,-9.3727,30.125,13.77,97,96,1.41,ZM,1680403542
130,ribeira grande,38.5167,-28.7,17.1,88,50,10.28,PT,1680403542
131,boa vista,2.8197,-60.6733,26.99,65,0,7.72,BR,1680403542
132,berlevag,70.8578,29.0864,-3.0,86,100,9.26,NO,1680403423
133,narsaq,60.9167,-46.05,-3.88,71,60,5.0,GL,1680403543
134,taft,31.7471,54.2088,6.97,18,0,2.06,IR,1680403543
135,palmer,42.1584,-72.3287,12.83,76,100,2.57,US,1680403312
136,hami,42.8,93.45,3.83,20,100,2.13,CN,1680403543
137,townsville,-19.25,146.8,32.49,55,41,4.63,AU,1680403543
138,butaritari,3.0707,172.7902,27.69,77,96,6.14,KI,1680403544
139,terra nova,-12.3667,-40.6667,19.2,77,0,1.27,BR,1680403544
140,ulaangom,49.9811,92.0667,-11.1,35,37,5.62,MN,1680403544
141,lavrentiya,65.5833,-171.0,-8.26,81,100,4.49,RU,1680403272
142,airai,-8.9266,125.4092,23.11,64,97,0.98,TL,1680403545
143,makurdi,7.7411,8.5121,28.22,62,96,2.89,NG,1680403545
144,aitape,-3.1374,142.3475,28.81,72,71,1.69,PG,1680403545
145,zarinsk,53.7074,84.9493,-8.73,75,8,2.44,RU,1680403545
146,zhangye,38.9342,100.4517,5.29,31,93,0.36,CN,1680403546
147,berestechko,50.3605,25.1107,7.22,95,100,3.04,UA,1680403546
148,port blair,11.6667,92.75,29.02,70,40,3.09,IN,1680403546
149,sao filipe,14.8961,-24.4956,26.22,48,0,2.96,CV,1680403547
150,sao felix do xingu,-6.6447,-51.995,22.4,97,86,0.73,BR,1680403547
151,mallaig,54.2169,-111.3685,-2.26,95,100,1.68,CA,1680403547
152,lumeje,-11.55,20.7833,17.81,97,100,0.81,AO,1680403548
153,nome,64.5011,-165.4064,-3.8,86,100,7.2,US,1680403257
154,maragogi,-9.0122,-35.2225,24.75,89,100,1.19,BR,1680403548
155,lorengau,-2.0226,147.2712,28.31,77,85,2.06,PG,1680403548
156,teguldet,57.3064,88.1667,-7.3,65,100,3.25,RU,1680403548
157,ko samui,9.5357,99.9357,29.95,70,20,4.12,TH,1680403370
158,padang,-0.9492,100.3543,27.03,67,71,1.54,ID,1680403294
159,katherine,-14.4667,132.2667,34.18,43,11,2.06,AU,1680403334
160,bengkulu,-3.8004,102.2655,27.74,66,94,2.05,ID,1680403549
161,lazaro cardenas,17.9583,-102.2,24.61,67,65,2.24,MX,1680403550
162,mitu,1.1983,-70.1733,21.58,98,98,0.81,CO,1680403550
163,pisco,-13.7,-76.2167,23.03,88,0,7.2,PE,1680403298
164,plettenberg bay,-34.0527,23.3716,17.24,55,0,1.19,ZA,1680403551
165,sosnogorsk,63.6023,53.8817,-2.08,96,100,1.99,RU,1680403551
166,luau,-10.7073,22.2247,17.71,98,100,1.13,AO,1680403551
167,yeppoon,-23.1333,150.7333,20.88,77,100,6.87,AU,1680403551
168,mildura,-34.2,142.15,18.93,47,0,3.83,AU,1680403552
169,carutapera,-1.195,-46.02,23.55,95,100,1.55,BR,1680403552
170,half moon bay,37.4636,-122.4286,13.88,76,0,5.66,US,1680403518
171,limenaria,40.6261,24.5786,14.97,71,100,2.21,GR,1680403552
172,sisimiut,66.9395,-53.6735,-15.79,67,78,4.05,GL,1680403552
173,chokurdakh,70.6333,147.9167,-22.22,94,85,3.91,RU,1680403553
174,sur,22.5667,59.5289,26.48,54,10,3.68,OM,1680403303
175,andenes,69.3143,16.1194,-2.82,79,75,3.09,NO,1680403301
176,iquique,-20.2208,-70.1431,24.02,82,95,1.13,CL,1680403438
177,general roca,-39.0333,-67.5833,20.9,37,63,3.61,AR,1680403403
178,qaanaaq,77.484,-69.3632,-24.95,61,12,2.95,GL,1680403554
179,carnarvon,-24.8667,113.6333,26.4,64,54,4.64,AU,1680403554
180,bethel,41.3712,-73.414,11.17,85,40,2.06,US,1680403456
181,bronkhorstspruit,-25.8102,28.7425,12.93,88,2,1.49,ZA,1680403554
182,scarborough,54.2797,-0.4044,5.76,87,96,1.34,GB,1680403520
183,te anau,-45.4167,167.7167,10.68,83,98,0.39,NZ,1680403555
184,alofi,-19.0595,-169.9187,28.94,74,39,6.17,NU,1680403282
185,husavik,66.0449,-17.3389,0.02,77,7,7.1,IS,1680403555
186,cairns,-16.9167,145.7667,32.28,76,97,3.09,AU,1680403475
187,myszkow,50.5752,19.3246,7.58,95,99,2.74,PL,1680403556
188,san cristobal,7.7669,-72.225,19.1,93,95,1.11,VE,1680403556
189,ternate,0.8,127.4,26.51,85,100,5.77,ID,1680403556
190,saint-pierre,-21.3393,55.4781,23.82,73,0,2.06,RE,1680403308
191,abha,18.2164,42.5053,14.14,88,20,2.57,SA,1680403556
192,nagorsk,59.3172,50.8078,0.13,92,83,2.46,RU,1680403557
193,mabaruma,8.2,-59.7833,23.29,89,71,1.7,GY,1680403557
194,nemuro,43.3236,145.575,2.08,67,2,8.32,JP,1680403299
195,richards bay,-28.783,32.0377,20.05,92,5,1.75,ZA,1680403444
196,kijang,35.2442,129.2139,19.85,59,0,10.79,KR,1680403557
197,piscolt,47.5833,22.3,9.96,94,100,1.46,RO,1680403558
198,antalaha,-14.9003,50.2788,23.39,89,100,1.98,MG,1680403558
199,mollendo,-17.0231,-72.0147,23.7,81,61,0.31,PE,1680403558
200,beloha,-25.1667,45.05,21.16,94,49,3.37,MG,1680403273
201,lensk,60.7253,114.9278,-8.21,67,81,3.84,RU,1680403559
202,atbasar,51.8,68.3333,-4.13,75,3,5.01,KZ,1680403559
203,bathsheba,13.2167,-59.5167,26.34,73,40,11.32,BB,1680403277
204,majdanpek,44.4277,21.946,5.11,95,49,2.07,RS,1680403559
205,tahta,26.7693,31.5021,14.86,39,0,3.01,EG,1680403466
206,tanout,14.9709,8.8879,21.03,11,29,4.26,NE,1680403560
207,gat,31.61,34.7642,11.33,71,0,0.8,IL,1680403560
208,east london,-33.0153,27.9116,19.54,85,1,4.1,ZA,1680403561
209,mount gambier,-37.8333,140.7667,16.18,53,97,1.72,AU,1680403561
210,porto novo,6.4965,2.6036,28.9,82,81,2.92,BJ,1680403561
211,nicoya,10.1483,-85.452,25.23,67,76,5.42,CR,1680403562
212,puerto baquerizo moreno,-0.9,-89.6,26.44,81,96,3.2,EC,1680403562
213,rognan,67.0953,15.3878,-6.64,91,68,3.23,NO,1680403562
214,kasamwa,-2.85,32.4333,15.73,94,52,0.91,TZ,1680403563
215,norman wells,65.282,-126.8329,-9.98,62,75,2.06,CA,1680403563
216,atuona,-9.8,-139.0333,27.12,74,8,5.71,PF,1680403563
217,kruisfontein,-34.0033,24.7314,14.32,73,0,2.09,ZA,1680403564
218,thoen,17.6129,99.2161,35.37,33,4,1.46,TH,1680403564
219,quang ngai,15.1167,108.8,29.16,67,85,3.08,VN,1680403564
220,vanimo,-2.6741,141.3028,27.79,82,99,1.03,PG,1680403565
221,pevek,69.7008,170.3133,-23.43,90,100,2.44,RU,1680403481
222,hasaki,35.7333,140.8333,17.22,67,100,9.54,JP,1680403566
223,acapulco,16.8634,-99.8901,27.9,65,0,2.06,MX,1680403440
224,klaksvik,62.2266,-6.589,4.51,83,100,3.51,FO,1680403566
225,cabo san lucas,22.8909,-109.9124,28.17,39,75,4.12,MX,1680403567
226,muzhi,65.3667,64.6667,1.15,86,52,7.32,RU,1680403567
227,lagoa,39.05,-27.9833,16.34,85,3,14.16,PT,1680403568
228,verkhnyaya inta,65.9811,60.3094,-3.29,94,100,4.15,RU,1680403568
229,teknaf,20.8624,92.3058,27.34,69,32,2.32,BD,1680403569
230,camocim,-2.9022,-40.8411,24.18,90,98,0.69,BR,1680403569
231,touros,-5.1989,-35.4608,24.51,89,100,2.82,BR,1680403569
232,bintulu,3.1667,113.0333,28.23,78,20,2.06,MY,1680403570
233,shingu,33.7333,135.9833,16.66,80,100,7.51,JP,1680403571
234,arona,28.0996,-16.681,17.73,63,0,7.2,ES,1680403307
235,orumiyeh,37.5527,45.0761,-1.25,55,20,1.03,IR,1680403506
236,sitka,57.0531,-135.33,3.94,81,75,1.54,US,1680403572
237,imst,47.2684,10.6698,-4.51,95,95,1.98,AT,1680403572
238,mandalgovi,45.7625,106.2708,-9.08,57,20,10.39,MN,1680403547
239,wilmington,34.2257,-77.9447,21.95,77,0,7.72,US,1680403573
240,taoudenni,22.6783,-3.9836,25.4,9,0,4.44,ML,1680403573
241,mount isa,-20.7333,139.5,29.87,25,100,5.14,AU,1680403573
242,saint-georges,12.0564,-61.7485,26.82,78,75,4.63,GD,1680403574
243,yar-sale,66.8333,70.8333,0.75,98,100,8.67,RU,1680403286
244,bardiyah,31.7561,25.0865,17.08,39,24,6.19,LY,1680403575
245,pickerington,39.8842,-82.7535,4.79,77,100,9.77,US,1680403047
246,nhulunbuy,-12.2333,136.7667,32.34,51,36,4.63,AU,1680403576
247,sukumo,32.9333,132.7333,19.66,49,100,3.73,JP,1680403453
248,lerwick,60.1545,-1.1494,5.0,79,6,5.34,GB,1680403577
249,giaveno,45.047,7.3492,8.81,52,88,3.38,IT,1680403577
250,waverly,42.7392,-84.6208,1.19,78,75,3.09,US,1680403471
251,price,39.5994,-110.8107,9.51,36,0,3.6,US,1680403578
252,porto walter,-8.2686,-72.7439,22.2,100,100,0.28,BR,1680403578
253,belyy yar,53.6039,91.3903,-9.06,62,0,0.0,RU,1680403579
254,laguna,38.421,-121.4238,17.08,89,44,3.32,US,1680403579
255,mayo,38.8876,-76.5119,12.23,54,40,14.92,US,1680403579
256,northam,51.0333,-4.2167,7.56,90,14,3.88,GB,1680403580
257,alta floresta,-9.8756,-56.0861,21.26,99,99,0.38,BR,1680403580
258,palmas,-10.2128,-48.3603,24.93,94,20,0.51,BR,1680403482
259,belaya gora,68.5333,146.4167,-18.51,76,17,2.0,RU,1680403327
260,bereda,43.2686,-7.5406,3.1,70,88,1.99,ES,1680403581
261,kysyl-syr,63.8986,122.7617,-11.08,83,86,5.63,RU,1680403581
262,hurghada,27.2574,33.8129,16.02,31,0,5.14,EG,1680403582
263,tagusao,9.1924,117.8141,29.0,68,95,2.84,PH,1680403582
264,salalah,17.0151,54.0924,28.05,83,75,3.6,OM,1680403304
265,asyut,27.181,31.1837,14.1,41,0,3.03,EG,1680403431
266,qeshm,26.9581,56.2719,22.93,65,2,11.34,IR,1680403583
267,muros,42.7762,-9.0603,6.49,92,21,3.55,ES,1680403584
268,villazon,-22.0866,-65.5942,12.09,60,64,2.66,BO,1680403488
269,chapais,49.7834,-74.8492,-11.12,87,100,6.86,CA,1680403584
270,tawang,27.5833,91.8667,5.5,90,99,2.42,IN,1680403585
271,leshukonskoye,64.8989,45.7622,-14.13,99,96,1.36,RU,1680403585
272,birao,10.2849,22.7882,20.54,16,41,2.79,CF,1680403585
273,rawson,-43.3002,-65.1023,18.16,29,0,5.14,AR,1680403586
274,kralendijk,12.15,-68.2667,25.99,78,75,7.2,BQ,1680403586
275,severo-kurilsk,50.6789,156.125,0.06,86,81,7.32,RU,1680403586
276,jacareacanga,-6.2222,-57.7528,22.71,98,100,1.06,BR,1680403419
277,fuerte,17.5381,120.3644,30.06,91,6,3.31,PH,1680403587
278,manta,-0.95,-80.7333,25.88,83,20,0.51,EC,1680403489
279,amberley,39.2048,-84.428,5.17,80,100,6.69,US,1680403588
280,pitimbu,-7.4706,-34.8086,25.33,79,97,3.02,BR,1680403588
281,saldanha,-33.0117,17.9442,15.03,91,0,3.26,ZA,1680403588
282,lima,-12.0432,-77.0282,25.5,79,20,5.14,PE,1680403180
283,nanortalik,60.1432,-45.2371,-4.59,82,86,2.94,GL,1680403589
284,talnakh,69.4865,88.3972,-4.33,95,100,7.34,RU,1680403590
285,kaihua,23.3687,104.28,24.81,40,5,6.4,CN,1680403590
286,nouadhibou,20.931,-17.0347,22.99,56,0,8.23,MR,1680403590
287,mikhaylovka,50.06,43.2379,4.83,75,82,2.41,RU,1680403591
288,waingapu,-9.6567,120.2641,28.47,74,100,2.03,ID,1680403591
289,margate,51.3813,1.3862,7.17,88,100,4.92,GB,1680403535
290,havre-saint-pierre,50.2334,-63.5986,-0.8,93,100,7.72,CA,1680403592
291,chippewa falls,44.9369,-91.3929,-0.9,76,0,2.06,US,1680403502
292,mwanza,-2.5167,32.9,18.2,85,69,0.89,TZ,1680403592
293,clyde river,70.4692,-68.5914,-26.87,76,0,5.66,CA,1680403593
294,san ramon,37.7799,-121.978,13.12,76,0,5.66,US,1680403593
295,kasama,-10.2129,31.1808,14.06,98,100,1.14,ZM,1680403594
296,bangor,54.6534,-5.669,7.83,83,100,0.45,GB,1680403441
297,port hedland,-20.3167,118.5667,34.03,46,75,3.6,AU,1680403594
298,baruun-urt,46.6806,113.2792,-3.86,89,100,8.06,MN,1680403595
299,lockhart,28.6194,-81.4426,25.08,79,43,2.24,US,1680403595
300,tyumentsevo,53.3224,81.498,-7.13,71,52,3.14,RU,1680403596
301,isangel,-19.55,169.2667,29.85,65,4,0.71,VU,1680403596
302,batagay-alyta,67.8006,130.4114,-17.31,74,100,2.57,RU,1680403596
303,lumsden,50.6501,-104.8678,-0.47,97,44,2.51,CA,1680403518
304,ponta delgada,37.7333,-25.6667,17.4,100,75,5.14,PT,1680403597
305,grande prairie,55.1667,-118.8027,3.1,52,40,4.12,CA,1680403320
306,milkovo,54.7167,158.6167,4.67,62,2,0.41,RU,1680403534
307,walvis bay,-22.9575,14.5053,15.02,90,4,0.46,NA,1680403597
308,sambava,-14.2667,50.1667,23.78,91,81,2.66,MG,1680403598
309,bereznik,62.8551,42.7072,-3.38,97,100,1.11,RU,1680403598
310,college,64.8569,-147.8028,-1.34,50,75,4.12,US,1680403598
311,port augusta,-32.5,137.7667,22.26,23,0,1.37,AU,1680403599
312,nuuk,64.1835,-51.7216,-3.66,68,40,5.66,GL,1680403599
313,konstantinovo,54.6628,29.2699,3.31,99,100,3.31,BY,1680403599
314,arcachon,44.5875,-1.0519,11.03,87,75,4.12,FR,1680403599
315,zhigansk,66.7697,123.3711,-15.11,94,100,9.51,RU,1680403600
316,shimoda,34.6667,138.95,16.2,69,100,9.01,JP,1680403600
317,lebu,-37.6167,-73.65,13.45,93,94,4.55,CL,1680403600
318,anadyr,64.75,177.4833,-13.72,78,3,11.0,RU,1680403600
319,den helder,52.9599,4.7593,4.99,83,75,11.32,NL,1680403601
320,port moresby,-9.4431,147.1797,30.68,58,40,4.12,PG,1680403327
321,codrington,-38.2667,141.9667,16.07,56,67,4.12,AU,1680403509
322,jiazi,22.8779,116.067,22.99,76,81,5.54,CN,1680403601
323,glyadyanskoye,54.9075,65.0883,0.56,61,26,4.36,RU,1680403602
324,biltine,14.5333,20.9167,24.2,9,92,7.18,TD,1680403602
325,victoria,22.2855,114.1577,24.03,91,100,0.89,HK,1680403483
326,sabzevar,36.2126,57.6819,7.71,62,0,0.58,IR,1680403602
327,adrar,20.5022,-10.0711,22.74,8,0,4.46,MR,1680403603
328,provideniya,64.3833,-173.3,-7.87,86,78,3.06,RU,1680403603
329,ketchikan,55.3422,-131.6461,5.99,65,40,0.0,US,1680403603
330,hukuntsi,-24.0,21.75,20.74,55,6,2.99,BW,1680403603
331,honiara,-9.4333,159.95,28.11,80,99,1.19,SB,1680403604
332,kimbe,-5.5502,150.1429,31.4,62,74,2.5,PG,1680403604
333,kitakata,37.65,139.8667,15.3,39,1,0.39,JP,1680403604
334,clifton,40.8584,-74.1638,13.07,84,75,2.06,US,1680403604
335,borba,-4.3878,-59.5939,22.74,98,100,0.41,BR,1680403605
336,shelburne,44.0787,-80.2041,-1.75,75,96,8.42,CA,1680403531
337,salinopolis,-0.6136,-47.3561,24.78,87,100,2.88,BR,1680403374
338,pingzhuang,42.0372,119.2889,18.53,29,50,10.13,CN,1680403606
339,kahului,20.8947,-156.47,27.01,66,40,7.72,US,1680403606
340,barreirinhas,-2.7469,-42.8264,23.48,96,100,1.54,BR,1680403606
341,nurota,40.5614,65.6886,18.17,48,100,2.29,UZ,1680403606
342,storm lake,42.6411,-95.2097,3.5,69,0,2.57,US,1680403607
343,marsa matruh,31.3525,27.2453,14.11,58,0,2.06,EG,1680403607
344,hambantota,6.1241,81.1185,28.19,89,20,1.54,LK,1680403607
345,yumen,40.2833,97.2,2.33,24,4,8.72,CN,1680403608
346,saint anthony,45.0205,-93.218,-0.12,77,0,3.09,US,1680403608
347,dalvik,65.9702,-18.5286,5.96,76,49,6.97,IS,1680403609
348,kirensk,57.7853,108.1119,-8.28,78,100,1.26,RU,1680403609
349,qasigiannguit,68.8193,-51.1922,-18.86,90,28,2.49,GL,1680403609
350,carlyle,38.6103,-89.3726,7.77,75,5,2.82,US,1680403609
351,ballina,-28.8667,153.5667,25.43,65,32,4.23,AU,1680403609
352,rawlins,41.7911,-107.2387,2.97,64,0,11.32,US,1680403610
353,alaverdi,41.0977,44.6732,2.61,79,100,2.03,AM,1680403610
354,severnyy,50.677,36.5532,4.02,80,96,5.0,RU,1680403337
355,beyneu,45.3167,55.2,11.86,54,100,1.94,KZ,1680403610
356,vostok,46.4856,135.8833,11.5,40,94,0.86,RU,1680403611
357,maceio,-9.6658,-35.7353,24.69,88,0,1.54,BR,1680403611
358,tura,25.5198,90.2201,22.08,73,0,2.2,IN,1680403611
359,lompoc,34.6391,-120.4579,13.11,79,0,6.69,US,1680403612
360,fereydun kenar,36.6864,52.5225,7.12,93,0,0.0,IR,1680403612
361,richmond,37.5538,-77.4603,18.99,48,40,12.35,US,1680402951
362,kosa,59.9445,54.9977,-0.34,95,100,2.69,RU,1680403612
363,altay,47.8667,88.1167,-7.49,39,100,3.84,CN,1680403612
364,road town,18.4167,-64.6167,25.05,73,40,4.12,VG,1680403613
365,bandarbeyla,9.4942,50.8122,26.8,71,94,1.72,SO,1680403613
366,binzhou,37.3667,118.0167,22.13,27,33,5.12,CN,1680403613
367,kununurra,-15.7667,128.7333,34.99,46,40,2.06,AU,1680403385
368,quelimane,-17.8786,36.8883,22.64,91,100,2.11,MZ,1680403614
369,viedma,-40.8135,-62.9967,17.55,33,93,3.95,AR,1680403614
370,kyren,51.6828,102.1408,-10.02,53,93,0.57,RU,1680403614
371,orsk,51.2049,58.5668,-3.5,93,0,3.0,RU,1680403615
372,mpanda,-6.3655,31.0409,17.52,99,89,0.46,TZ,1680403615
373,henties bay,-22.116,14.2845,15.06,93,6,0.95,NA,1680403615
374,joshimath,30.5667,79.5667,11.23,60,72,1.14,IN,1680403615
375,porbandar,21.6422,69.6093,24.94,67,31,2.44,IN,1680403616
376,moose factory,51.2585,-80.6094,-18.01,78,0,0.51,CA,1680403616
377,prachin buri,14.0833,101.6667,32.11,100,39,4.37,TH,1680403616
378,rio gallegos,-51.6226,-69.2181,8.03,61,0,5.14,AR,1680403552
379,taywarah,33.35,64.4167,6.18,61,1,2.49,AF,1680403616
380,iskateley,67.6803,53.1512,-12.95,93,34,4.59,RU,1680403617
381,clarence town,-32.5833,151.7833,23.12,74,35,3.03,AU,1680403617
382,villa maria,-32.4075,-63.2402,16.13,45,59,4.02,AR,1680403617
383,georgetown,5.4112,100.3354,29.96,79,20,2.57,MY,1680403618
384,nguruka,-5.1092,31.0419,16.38,97,67,0.51,TZ,1680403618
385,sinnamary,5.3833,-52.95,24.73,85,20,4.4,GF,1680403618
386,mushie,-3.0167,16.9,21.92,94,100,1.27,CD,1680403618
387,elat,29.5581,34.9482,16.91,48,0,3.09,IL,1680403619
388,asahi,35.7167,140.65,17.21,65,100,7.81,JP,1680403619
389,tahoua,14.8888,5.2692,23.74,11,90,4.8,NE,1680403619
390,mill valley,37.906,-122.545,13.82,81,52,4.02,US,1680403619
391,kemin,42.7846,75.6892,10.86,29,1,2.14,KG,1680403620
392,ust-maya,60.4167,134.5333,-11.37,76,100,3.63,RU,1680403620
393,krasnoshchekovo,51.6708,82.7289,-5.26,44,0,7.99,RU,1680403620
394,pontarlier,46.8333,6.25,2.52,98,100,1.66,FR,1680403621
395,cayenne,4.9333,-52.3333,26.02,83,75,1.54,GF,1680403621
396,sampit,-2.5333,112.95,30.03,63,100,1.82,ID,1680403621
397,vicuna,-30.0319,-70.7081,11.85,54,0,0.29,CL,1680403619
398,placido de castro,-10.3353,-67.1856,22.28,96,100,0.62,BR,1680403622
399,pacific grove,36.6177,-121.9166,14.69,79,0,3.6,US,1680403622
400,trelew,-43.249,-65.3051,18.15,29,0,5.14,AR,1680403623
401,tripoli,32.8752,13.1875,17.4,78,52,6.19,LY,1680403505
402,haapiti,-17.5667,-149.8667,31.85,75,11,4.74,PF,1680403623
403,morki,56.4303,48.9947,3.35,85,100,1.97,RU,1680403624
404,areosa,41.7178,-8.8571,8.33,79,11,4.4,PT,1680403624
405,maningrida,-12.0667,134.2667,31.67,54,8,2.69,AU,1680403624
406,fortuna,40.5982,-124.1573,9.99,81,98,0.89,US,1680403624
407,brae,60.3964,-1.353,4.58,83,5,4.53,GB,1680403625
408,tantoyuca,21.35,-98.2333,24.28,83,96,3.37,MX,1680403625
409,gillette,44.2911,-105.5022,7.51,50,0,10.8,US,1680403397
410,tilichiki,60.4667,166.1,-2.07,97,91,1.13,RU,1680403626
411,morden,49.1919,-98.1014,-1.76,69,17,6.17,CA,1680403626
412,koumac,-20.5667,164.2833,28.34,63,15,2.83,NC,1680403627
413,igarka,67.4667,86.5833,-0.95,98,100,9.42,RU,1680403627
414,vardo,70.3705,31.1107,-5.01,93,99,11.32,NO,1680403627
415,shubarkuduk,49.1447,56.4872,5.79,38,11,8.99,KZ,1680403628
416,kavieng,-2.5744,150.7967,27.93,74,94,1.5,PG,1680403628
417,ercis,39.0287,43.3586,-5.03,80,12,1.63,TR,1680403628
418,los llanos de aridane,28.6585,-17.9182,15.86,82,0,6.17,ES,1680403629
419,leningradskiy,69.3833,178.4167,-16.98,89,100,13.33,RU,1680403581
420,asau,46.4333,26.4,8.51,88,100,2.08,RO,1680403630
421,fortuna foothills,32.6578,-114.4119,25.05,21,0,4.12,US,1680403630
422,ereymentau,51.6199,73.1033,-1.89,34,4,6.11,KZ,1680403630
423,okha,53.5739,142.9478,5.01,77,10,3.89,RU,1680403631
424,araouane,18.9048,-3.5265,23.94,7,3,4.6,ML,1680403631
425,kodinsk,58.6881,99.1844,-6.53,63,11,1.92,RU,1680403631
426,kavaratti,10.5669,72.642,27.22,69,20,3.49,IN,1680403631
427,micheweni,-4.9667,39.8333,27.31,80,61,3.78,TZ,1680403420
428,takoradi,4.8845,-1.7554,26.48,84,51,2.38,GH,1680403632
429,tateyama,34.9833,139.8667,15.27,67,100,7.38,JP,1680403633
430,north platte,41.1239,-100.7654,12.84,37,0,3.6,US,1680403633
431,port huron,42.9709,-82.4249,1.23,70,100,10.29,US,1680403634
432,formiga,-20.4644,-45.4264,18.51,88,90,1.4,BR,1680403381
433,rio grande,-32.035,-52.0986,18.6,65,6,3.77,BR,1680403634
434,coihaique,-45.5752,-72.0662,8.34,81,75,0.0,CL,1680403388
435,skibbereen,51.55,-9.2667,4.61,85,31,2.59,IE,1680403438
436,barcelos,41.5388,-8.6151,11.58,85,9,2.64,PT,1680403635
437,westport,41.1415,-73.3579,11.87,86,100,2.57,US,1680403521
438,fort-shevchenko,44.5086,50.263,6.9,80,100,6.63,KZ,1680403636
439,ust-tsilma,65.441,52.1498,-7.52,97,100,1.54,RU,1680403636
440,tecoanapa,16.5167,-98.75,26.93,72,6,1.49,MX,1680403636
441,teeli,51.0333,90.2333,-13.19,49,82,0.85,RU,1680403637
442,fairbanks,64.8378,-147.7164,-1.33,52,75,4.12,US,1680403532
443,smithers,54.7804,-127.1743,3.18,44,40,3.09,CA,1680403637
444,baishishan,43.5833,127.5667,19.68,20,43,1.75,CN,1680403638
445,nelson bay,-32.7167,152.15,22.78,72,22,2.24,AU,1680403638
446,goiatuba,-18.0125,-49.3547,20.12,89,100,1.19,BR,1680403548
447,kloulklubed,7.0419,134.2556,27.28,71,89,1.61,PW,1680403417
448,forestville,38.8451,-76.875,11.14,56,40,9.77,US,1680403639
449,maniitsoq,65.4167,-52.9,-8.8,60,100,3.98,GL,1680403639
450,prince rupert,54.3161,-130.3201,4.05,87,100,8.75,CA,1680403457
451,sapa,5.1544,120.3241,25.6,87,100,2.44,PH,1680403640
452,rimouski,48.4488,-68.524,0.1,99,100,3.96,CA,1680403447
453,cap malheureux,-19.9842,57.6142,24.15,79,27,0.45,MU,1680403641
454,conceicao da barra,-18.5933,-39.7322,24.62,85,100,2.06,BR,1680403641
455,markova,48.6758,24.4138,6.86,92,100,0.76,UA,1680403642
456,celestun,20.8667,-90.4,26.53,74,8,6.86,MX,1680403642
457,boden,65.8252,21.6886,-9.0,92,8,2.61,SE,1680403643
458,viransehir,37.2353,39.7631,3.73,72,65,2.3,TR,1680403602
459,concepcion,-36.827,-73.0498,16.89,82,0,3.09,CL,1680403485
460,tautira,-17.7333,-149.15,28.31,73,3,4.34,PF,1680403643
461,muroto,33.2833,134.15,18.01,58,100,9.86,JP,1680403644
462,casper,42.8666,-106.3131,7.07,51,20,9.26,US,1680403644
463,srivardhan,18.0333,73.0167,25.99,64,6,3.3,IN,1680403645
464,ghanzi,-21.5667,21.7833,20.02,61,14,4.28,BW,1680403645
465,arshan,46.2732,44.22,4.21,69,100,2.0,RU,1680403645
466,kihei,20.785,-156.4656,27.01,73,40,7.72,US,1680403587
467,namibe,-15.1961,12.1522,24.01,81,98,2.13,AO,1680403646
468,rapid valley,44.0625,-103.1463,7.3,62,0,4.12,US,1680403647
469,prainha,-1.8,-53.48,22.41,98,72,1.33,BR,1680403647
470,tupik,54.4253,119.9327,-7.85,69,99,5.68,RU,1680403647
471,tevaitoa,-16.7833,-151.5,28.23,70,2,3.47,PF,1680403648
472,pangnirtung,66.1451,-65.7125,-18.28,74,97,3.74,CA,1680403648
473,disna,55.568,28.1971,1.16,97,100,6.18,BY,1680403649
474,faya,18.3851,42.4509,14.29,88,29,1.86,SA,1680403649
475,sretensk,52.2453,117.7093,-2.71,67,100,5.79,RU,1680403649
476,kovdor,67.5662,30.4758,-15.32,99,86,1.94,RU,1680403650
477,sechura,-5.5569,-80.8222,27.99,70,100,4.28,PE,1680403650
478,pingliang,35.5392,106.6861,4.77,80,100,7.69,CN,1680403650
479,itarema,-2.9248,-39.9167,24.39,88,90,2.07,BR,1680403651
480,lahij,13.1667,44.5833,24.92,85,38,1.23,YE,1680403651
481,sterling,39.0062,-77.4286,10.37,55,40,11.32,US,1680403651
482,mountain home,43.133,-115.6912,4.68,77,100,2.06,US,1680403400
483,vila do maio,15.1333,-23.2167,27.44,75,0,4.86,CV,1680403652
484,sobolevo,54.4299,31.8996,6.44,95,100,6.03,RU,1680403652
485,veraval,20.9,70.3667,25.04,69,6,3.43,IN,1680403652
486,cockburn town,21.4612,-71.1419,25.31,72,0,9.07,TC,1680403653
487,la maddalena,41.2142,9.4083,13.03,77,72,11.54,IT,1680403653
488,svetlogorsk,52.6333,29.7333,5.72,97,99,2.19,BY,1680403371
489,ialibu,-6.2821,143.9935,18.33,82,70,1.75,PG,1680403654
490,wucheng,29.6008,118.175,23.59,52,0,1.77,CN,1680403654
491,sao jose da coroa grande,-8.8978,-35.1478,25.36,86,100,1.42,BR,1680403654
492,beringovskiy,63.05,179.3167,-8.56,62,0,8.25,RU,1680403654
493,peniche,39.3558,-9.3811,13.49,89,49,7.5,PT,1680403655
494,mindelo,16.8901,-24.9804,25.75,36,0,6.17,CV,1680403655
495,semirom,31.4167,51.5667,-0.08,73,2,2.43,IR,1680403655
496,popondetta,-8.7537,148.2534,26.95,76,98,1.82,PG,1680403656
497,oudtshoorn,-33.5907,22.2014,17.15,49,0,0.87,ZA,1680403656
498,chumikan,54.7183,135.315,1.39,91,98,1.97,RU,1680403656
499,chara,56.9064,118.2631,-12.34,70,80,1.85,RU,1680403657
500,goure,13.9835,10.2704,21.18,13,34,3.73,NE,1680403657
501,kungurtug,50.5994,97.5228,-12.15,71,100,1.85,RU,1680403494
502,kitimat,54.0524,-128.6534,3.21,66,55,1.15,CA,1680403657
503,am timan,11.0297,20.2827,25.62,15,21,3.68,TD,1680403658
504,benguela,-12.5763,13.4055,24.5,82,59,1.95,AO,1680403658
505,abu dhabi,24.4667,54.3667,23.86,65,20,5.14,AE,1680403567
506,pimentel,-6.8367,-79.9342,27.16,83,100,4.12,PE,1680403658
507,peno,56.9262,32.7426,0.55,99,100,2.41,RU,1680403659
508,gizo,-8.103,156.8419,28.44,71,85,1.28,SB,1680403659
509,huarmey,-10.0681,-78.1522,25.24,84,100,3.17,PE,1680403659
510,homer,59.6425,-151.5483,5.94,28,0,4.63,US,1680403518
511,dunyapur,29.7995,71.7196,21.1,66,6,4.89,PK,1680403660
512,krasnoselkup,65.7,82.4667,-0.02,98,100,11.68,RU,1680403660
513,punta alta,-38.8759,-62.0736,20.04,44,88,6.42,AR,1680403480
514,daura,11.5538,11.4085,22.42,13,44,4.24,NG,1680403660
515,waw,7.7029,27.9953,25.13,39,86,1.05,SS,1680403661
516,deep river,46.1001,-77.4995,-8.64,84,69,6.06,CA,1680403661
517,lucea,18.451,-78.1736,23.25,79,5,1.89,JM,1680403661
518,nantucket,41.2835,-70.0995,11.08,98,100,5.66,US,1680403629
519,marawi,7.9986,124.2928,25.24,79,84,1.78,PH,1680403662
520,nizwa,22.9333,57.5333,24.41,44,57,0.57,OM,1680403662
521,buala,-8.145,159.5921,28.55,74,100,0.58,SB,1680403662
522,rocha,-34.4833,-54.3333,11.72,88,55,1.22,UY,1680403663
523,bentiu,9.2333,29.8333,25.11,14,100,2.28,SS,1680403663
524,ambon,-3.6954,128.1814,30.08,74,40,1.54,ID,1680403663
525,amapa,1.0,-52.0,21.03,99,66,0.94,BR,1680403664
526,xuddur,4.1213,43.8894,24.67,76,51,4.51,SO,1680403664
527,haines junction,60.7522,-137.5108,-2.03,46,100,5.66,CA,1680403664
528,dali,25.7,100.1833,15.87,58,79,3.93,CN,1680403439
529,falmouth,50.1544,-5.0711,8.5,87,75,2.57,GB,1680403629
530,qingdao,36.0986,120.3719,18.78,22,0,5.0,CN,1680403665
531,dong hoi,17.4833,106.6,28.91,71,1,2.87,VN,1680403665
532,kattivakkam,13.2167,80.3167,29.48,85,68,6.03,IN,1680403666
533,dunmore town,25.5,-76.65,24.41,80,3,5.11,BS,1680403666
534,karratha,-20.7377,116.8463,30.94,51,33,2.37,AU,1680403666
535,mapiripan,2.8892,-72.1256,22.65,96,90,1.82,CO,1680403666
536,goksun,38.021,36.4973,3.0,92,91,2.3,TR,1680403666
537,natal,-5.795,-35.2094,25.12,88,20,2.06,BR,1680403400
538,bonfim,3.0833,-59.95,26.31,63,100,4.94,BR,1680403667
539,guanica,17.9716,-66.908,24.47,63,0,3.21,PR,1680403667
540,key largo,25.0865,-80.4473,25.55,77,4,1.82,US,1680403559
541,renqiu,38.6989,116.0936,20.6,34,100,4.05,CN,1680403668
542,avera,33.194,-82.5271,20.03,41,56,6.69,US,1680403668
543,eureka,40.8021,-124.1637,10.14,85,95,0.89,US,1680403518
544,riverton,40.5219,-111.9391,12.73,43,100,1.46,US,1680403668
545,vereeniging,-26.6731,27.9261,14.82,62,21,2.22,ZA,1680403668
